{
"type": "FeatureCollection",
"name": "Regional_Rail_Stations",
"crs": { "type": "name", "properties": { "name": "urn:ogc:def:crs:OGC:1.3:CRS84" } },
"features": [
{ "type": "Feature", "properties": { "FID": 1, "Line_Name": "Airport Line", "Station_Na": "Airport Terminal A", "Latitude": 39.875992154000002, "Longitude": -75.246573739 }, "geometry": { "type": "Point", "coordinates": [ -75.246573739, 39.875992154 ] } },
{ "type": "Feature", "properties": { "FID": 2, "Line_Name": "Airport Line", "Station_Na": "Airport Terminal B", "Latitude": 39.87638033, "Longitude": -75.244632724 }, "geometry": { "type": "Point", "coordinates": [ -75.244632724, 39.87638033 ] } },
{ "type": "Feature", "properties": { "FID": 3, "Line_Name": "Airport Line", "Station_Na": "Airport Terminals C&D", "Latitude": 39.877322491000001, "Longitude": -75.241542413000005 }, "geometry": { "type": "Point", "coordinates": [ -75.241542413, 39.877322491 ] } },
{ "type": "Feature", "properties": { "FID": 4, "Line_Name": "Airport Line", "Station_Na": "Airport Terminals E&F", "Latitude": 39.878980962999997, "Longitude": -75.240039995000004 }, "geometry": { "type": "Point", "coordinates": [ -75.240039995, 39.878980963 ] } },
{ "type": "Feature", "properties": { "FID": 5, "Line_Name": "Airport Line", "Station_Na": "Eastwick", "Latitude": 39.891650505000001, "Longitude": -75.244980619000003 }, "geometry": { "type": "Point", "coordinates": [ -75.244980619, 39.891650505 ] } },
{ "type": "Feature", "properties": { "FID": 6, "Line_Name": "Chestnut Hill East Line", "Station_Na": "Chestnut Hill East", "Latitude": 40.081041612, "Longitude": -75.207758959000003 }, "geometry": { "type": "Point", "coordinates": [ -75.207758959, 40.081041612 ] } },
{ "type": "Feature", "properties": { "FID": 7, "Line_Name": "Chestnut Hill East Line", "Station_Na": "Germantown", "Latitude": 40.037838594999997, "Longitude": -75.17193487 }, "geometry": { "type": "Point", "coordinates": [ -75.17193487, 40.037838595 ] } },
{ "type": "Feature", "properties": { "FID": 8, "Line_Name": "Chestnut Hill East Line", "Station_Na": "Gravers", "Latitude": 40.077462288, "Longitude": -75.201841836 }, "geometry": { "type": "Point", "coordinates": [ -75.201841836, 40.077462288 ] } },
{ "type": "Feature", "properties": { "FID": 9, "Line_Name": "Chestnut Hill East Line", "Station_Na": "Mount Airy", "Latitude": 40.065255796000002, "Longitude": -75.191044307 }, "geometry": { "type": "Point", "coordinates": [ -75.191044307, 40.065255796 ] } },
{ "type": "Feature", "properties": { "FID": 10, "Line_Name": "Chestnut Hill East Line", "Station_Na": "Sedgwick", "Latitude": 40.062816869000002, "Longitude": -75.185122512999996 }, "geometry": { "type": "Point", "coordinates": [ -75.185122513, 40.062816869 ] } },
{ "type": "Feature", "properties": { "FID": 11, "Line_Name": "Chestnut Hill East Line", "Station_Na": "Stenton", "Latitude": 40.060563117000001, "Longitude": -75.178832795999995 }, "geometry": { "type": "Point", "coordinates": [ -75.178832796, 40.060563117 ] } },
{ "type": "Feature", "properties": { "FID": 12, "Line_Name": "Chestnut Hill East Line", "Station_Na": "Washington Lane", "Latitude": 40.051058925, "Longitude": -75.17153109 }, "geometry": { "type": "Point", "coordinates": [ -75.17153109, 40.051058925 ] } },
{ "type": "Feature", "properties": { "FID": 13, "Line_Name": "Chestnut Hill East Line", "Station_Na": "Wister", "Latitude": 40.036182066000002, "Longitude": -75.161465258999996 }, "geometry": { "type": "Point", "coordinates": [ -75.161465259, 40.036182066 ] } },
{ "type": "Feature", "properties": { "FID": 14, "Line_Name": "Chestnut Hill East Line", "Station_Na": "Wyndmoor", "Latitude": 40.073439092999998, "Longitude": -75.196739398000005 }, "geometry": { "type": "Point", "coordinates": [ -75.196739398, 40.073439093 ] } },
{ "type": "Feature", "properties": { "FID": 15, "Line_Name": "Chestnut Hill West Line", "Station_Na": "Allen Lane", "Latitude": 40.057457917999997, "Longitude": -75.194925115000004 }, "geometry": { "type": "Point", "coordinates": [ -75.194925115, 40.057457918 ] } },
{ "type": "Feature", "properties": { "FID": 16, "Line_Name": "Chestnut Hill West Line", "Station_Na": "Carpenter", "Latitude": 40.050928007000003, "Longitude": -75.191618977000005 }, "geometry": { "type": "Point", "coordinates": [ -75.191618977, 40.050928007 ] } },
{ "type": "Feature", "properties": { "FID": 17, "Line_Name": "Chestnut Hill West Line", "Station_Na": "Chelten Avenue", "Latitude": 40.029959562999998, "Longitude": -75.181096265999997 }, "geometry": { "type": "Point", "coordinates": [ -75.181096266, 40.029959563 ] } },
{ "type": "Feature", "properties": { "FID": 18, "Line_Name": "Chestnut Hill West Line", "Station_Na": "Chestnut Hill West", "Latitude": 40.076228176999997, "Longitude": -75.208512174000006 }, "geometry": { "type": "Point", "coordinates": [ -75.208512174, 40.076228177 ] } },
{ "type": "Feature", "properties": { "FID": 19, "Line_Name": "Chestnut Hill West Line", "Station_Na": "Highland", "Latitude": 40.070349096000001, "Longitude": -75.211126816000004 }, "geometry": { "type": "Point", "coordinates": [ -75.211126816, 40.070349096 ] } },
{ "type": "Feature", "properties": { "FID": 20, "Line_Name": "Chestnut Hill West Line", "Station_Na": "North Philadelphia", "Latitude": 39.997211993999997, "Longitude": -75.156583991999995 }, "geometry": { "type": "Point", "coordinates": [ -75.156583992, 39.997211994 ] } },
{ "type": "Feature", "properties": { "FID": 21, "Line_Name": "Chestnut Hill West Line", "Station_Na": "Queen Lane", "Latitude": 40.023258034000001, "Longitude": -75.178067258 }, "geometry": { "type": "Point", "coordinates": [ -75.178067258, 40.023258034 ] } },
{ "type": "Feature", "properties": { "FID": 22, "Line_Name": "Chestnut Hill West Line", "Station_Na": "St. Martins", "Latitude": 40.065803707000001, "Longitude": -75.204526161000004 }, "geometry": { "type": "Point", "coordinates": [ -75.204526161, 40.065803707 ] } },
{ "type": "Feature", "properties": { "FID": 23, "Line_Name": "Chestnut Hill West Line", "Station_Na": "Tulpehocken", "Latitude": 40.035122891, "Longitude": -75.186958141999995 }, "geometry": { "type": "Point", "coordinates": [ -75.186958142, 40.035122891 ] } },
{ "type": "Feature", "properties": { "FID": 24, "Line_Name": "Chestnut Hill West Line", "Station_Na": "Upsal", "Latitude": 40.042381972000001, "Longitude": -75.190183172999994 }, "geometry": { "type": "Point", "coordinates": [ -75.190183173, 40.042381972 ] } },
{ "type": "Feature", "properties": { "FID": 25, "Line_Name": "Cynwyd Line", "Station_Na": "Bala", "Latitude": 40.001042706, "Longitude": -75.227762618 }, "geometry": { "type": "Point", "coordinates": [ -75.227762618, 40.001042706 ] } },
{ "type": "Feature", "properties": { "FID": 26, "Line_Name": "Cynwyd Line", "Station_Na": "Cynwyd", "Latitude": 40.006858264000002, "Longitude": -75.231867758000007 }, "geometry": { "type": "Point", "coordinates": [ -75.231867758, 40.006858264 ] } },
{ "type": "Feature", "properties": { "FID": 27, "Line_Name": "Cynwyd Line", "Station_Na": "Wynnefield Avenue", "Latitude": 39.99021325, "Longitude": -75.225646671999996 }, "geometry": { "type": "Point", "coordinates": [ -75.225646672, 39.99021325 ] } },
{ "type": "Feature", "properties": { "FID": 28, "Line_Name": "Fox Chase Line", "Station_Na": "Cheltenham", "Latitude": 40.057870682999997, "Longitude": -75.092869183000005 }, "geometry": { "type": "Point", "coordinates": [ -75.092869183, 40.057870683 ] } },
{ "type": "Feature", "properties": { "FID": 29, "Line_Name": "Fox Chase Line", "Station_Na": "Fox Chase", "Latitude": 40.075909973000002, "Longitude": -75.083523821 }, "geometry": { "type": "Point", "coordinates": [ -75.083523821, 40.075909973 ] } },
{ "type": "Feature", "properties": { "FID": 30, "Line_Name": "Fox Chase Line", "Station_Na": "Lawndale", "Latitude": 40.051367653, "Longitude": -75.103231799 }, "geometry": { "type": "Point", "coordinates": [ -75.103231799, 40.051367653 ] } },
{ "type": "Feature", "properties": { "FID": 31, "Line_Name": "Fox Chase Line", "Station_Na": "Olney", "Latitude": 40.033395612, "Longitude": -75.122513925999996 }, "geometry": { "type": "Point", "coordinates": [ -75.122513926, 40.033395612 ] } },
{ "type": "Feature", "properties": { "FID": 32, "Line_Name": "Fox Chase Line", "Station_Na": "Ryers", "Latitude": 40.063645491000003, "Longitude": -75.086731149000002 }, "geometry": { "type": "Point", "coordinates": [ -75.086731149, 40.063645491 ] } },
{ "type": "Feature", "properties": { "FID": 33, "Line_Name": "Joint", "Station_Na": "30th Street Station", "Latitude": 39.956516281, "Longitude": -75.181805964999995 }, "geometry": { "type": "Point", "coordinates": [ -75.181805965, 39.956516281 ] } },
{ "type": "Feature", "properties": { "FID": 34, "Line_Name": "Joint", "Station_Na": "Elkins Park", "Latitude": 40.071228057, "Longitude": -75.127676758999996 }, "geometry": { "type": "Point", "coordinates": [ -75.127676759, 40.071228057 ] } },
{ "type": "Feature", "properties": { "FID": 35, "Line_Name": "Joint", "Station_Na": "Fern Rock Transportation Center", "Latitude": 40.040884984999998, "Longitude": -75.13480883 }, "geometry": { "type": "Point", "coordinates": [ -75.13480883, 40.040884985 ] } },
{ "type": "Feature", "properties": { "FID": 36, "Line_Name": "Joint", "Station_Na": "Glenside", "Latitude": 40.101353926999998, "Longitude": -75.153746397000006 }, "geometry": { "type": "Point", "coordinates": [ -75.153746397, 40.101353927 ] } },
{ "type": "Feature", "properties": { "FID": 37, "Line_Name": "Joint", "Station_Na": "Jefferson", "Latitude": 39.952640797999997, "Longitude": -75.158372027 }, "geometry": { "type": "Point", "coordinates": [ -75.158372027, 39.952640798 ] } },
{ "type": "Feature", "properties": { "FID": 38, "Line_Name": "Joint", "Station_Na": "Jenkintown-Wyncote", "Latitude": 40.093146947999998, "Longitude": -75.13772812000001 }, "geometry": { "type": "Point", "coordinates": [ -75.13772812, 40.093146948 ] } },
{ "type": "Feature", "properties": { "FID": 39, "Line_Name": "Joint", "Station_Na": "Melrose Park", "Latitude": 40.05947879, "Longitude": -75.129140648999993 }, "geometry": { "type": "Point", "coordinates": [ -75.129140649, 40.05947879 ] } },
{ "type": "Feature", "properties": { "FID": 40, "Line_Name": "Joint", "Station_Na": "North Broad", "Latitude": 39.991877955, "Longitude": -75.153710546 }, "geometry": { "type": "Point", "coordinates": [ -75.153710546, 39.991877955 ] } },
{ "type": "Feature", "properties": { "FID": 41, "Line_Name": "Joint", "Station_Na": "Penn Medicine", "Latitude": 39.948197534999998, "Longitude": -75.189932125 }, "geometry": { "type": "Point", "coordinates": [ -75.189932125, 39.948197535 ] } },
{ "type": "Feature", "properties": { "FID": 42, "Line_Name": "Joint", "Station_Na": "Suburban Station", "Latitude": 39.95399019, "Longitude": -75.167470972000004 }, "geometry": { "type": "Point", "coordinates": [ -75.167470972, 39.95399019 ] } },
{ "type": "Feature", "properties": { "FID": 43, "Line_Name": "Joint", "Station_Na": "Temple University", "Latitude": 39.981478975999998, "Longitude": -75.149531787000001 }, "geometry": { "type": "Point", "coordinates": [ -75.149531787, 39.981478976 ] } },
{ "type": "Feature", "properties": { "FID": 44, "Line_Name": "Joint", "Station_Na": "Wayne Junction", "Latitude": 40.022423275999998, "Longitude": -75.159950297999998 }, "geometry": { "type": "Point", "coordinates": [ -75.159950298, 40.022423276 ] } },
{ "type": "Feature", "properties": { "FID": 45, "Line_Name": "Lansdale Doylestown Line", "Station_Na": "Ambler", "Latitude": 40.152827232, "Longitude": -75.224359613999994 }, "geometry": { "type": "Point", "coordinates": [ -75.224359614, 40.152827232 ] } },
{ "type": "Feature", "properties": { "FID": 46, "Line_Name": "Lansdale Doylestown Line", "Station_Na": "Chalfont", "Latitude": 40.287780268, "Longitude": -75.211072973 }, "geometry": { "type": "Point", "coordinates": [ -75.211072973, 40.287780268 ] } },
{ "type": "Feature", "properties": { "FID": 47, "Line_Name": "Lansdale Doylestown Line", "Station_Na": "Colmar", "Latitude": 40.26849547, "Longitude": -75.254079138999998 }, "geometry": { "type": "Point", "coordinates": [ -75.254079139, 40.26849547 ] } },
{ "type": "Feature", "properties": { "FID": 48, "Line_Name": "Lansdale Doylestown Line", "Station_Na": "Delaware Valley University", "Latitude": 40.297235471999997, "Longitude": -75.161782790999993 }, "geometry": { "type": "Point", "coordinates": [ -75.161782791, 40.297235472 ] } },
{ "type": "Feature", "properties": { "FID": 49, "Line_Name": "Lansdale Doylestown Line", "Station_Na": "Doylestown", "Latitude": 40.306199607000003, "Longitude": -75.130680143999996 }, "geometry": { "type": "Point", "coordinates": [ -75.130680144, 40.306199607 ] } },
{ "type": "Feature", "properties": { "FID": 50, "Line_Name": "Lansdale Doylestown Line", "Station_Na": "Fort Washington", "Latitude": 40.135314061000003, "Longitude": -75.211573966000003 }, "geometry": { "type": "Point", "coordinates": [ -75.211573966, 40.135314061 ] } },
{ "type": "Feature", "properties": { "FID": 51, "Line_Name": "Lansdale Doylestown Line", "Station_Na": "Fortuna", "Latitude": 40.259503816, "Longitude": -75.266305657999993 }, "geometry": { "type": "Point", "coordinates": [ -75.266305658, 40.259503816 ] } },
{ "type": "Feature", "properties": { "FID": 52, "Line_Name": "Lansdale Doylestown Line", "Station_Na": "Gwynedd Valley", "Latitude": 40.184816397, "Longitude": -75.256913170999994 }, "geometry": { "type": "Point", "coordinates": [ -75.256913171, 40.184816397 ] } },
{ "type": "Feature", "properties": { "FID": 53, "Line_Name": "Lansdale Doylestown Line", "Station_Na": "Lansdale", "Latitude": 40.243090981999998, "Longitude": -75.284866793000006 }, "geometry": { "type": "Point", "coordinates": [ -75.284866793, 40.243090982 ] } },
{ "type": "Feature", "properties": { "FID": 54, "Line_Name": "Lansdale Doylestown Line", "Station_Na": "Link Belt", "Latitude": 40.273891939000002, "Longitude": -75.246741219 }, "geometry": { "type": "Point", "coordinates": [ -75.246741219, 40.273891939 ] } },
{ "type": "Feature", "properties": { "FID": 55, "Line_Name": "Lansdale Doylestown Line", "Station_Na": "New Britain", "Latitude": 40.297490609, "Longitude": -75.179640886000001 }, "geometry": { "type": "Point", "coordinates": [ -75.179640886, 40.297490609 ] } },
{ "type": "Feature", "properties": { "FID": 56, "Line_Name": "Lansdale Doylestown Line", "Station_Na": "Ninth Street", "Latitude": 40.250349721, "Longitude": -75.278753058999996 }, "geometry": { "type": "Point", "coordinates": [ -75.278753059, 40.250349721 ] } },
{ "type": "Feature", "properties": { "FID": 57, "Line_Name": "Lansdale Doylestown Line", "Station_Na": "North Hills", "Latitude": 40.112032673000002, "Longitude": -75.169437192000004 }, "geometry": { "type": "Point", "coordinates": [ -75.169437192, 40.112032673 ] } },
{ "type": "Feature", "properties": { "FID": 58, "Line_Name": "Lansdale Doylestown Line", "Station_Na": "North Wales", "Latitude": 40.214357608999997, "Longitude": -75.277267533 }, "geometry": { "type": "Point", "coordinates": [ -75.277267533, 40.214357609 ] } },
{ "type": "Feature", "properties": { "FID": 59, "Line_Name": "Lansdale Doylestown Line", "Station_Na": "Oreland", "Latitude": 40.118196545000004, "Longitude": -75.183829873999997 }, "geometry": { "type": "Point", "coordinates": [ -75.183829874, 40.118196545 ] } },
{ "type": "Feature", "properties": { "FID": 60, "Line_Name": "Lansdale Doylestown Line", "Station_Na": "Penllyn", "Latitude": 40.16971177, "Longitude": -75.243958433000003 }, "geometry": { "type": "Point", "coordinates": [ -75.243958433, 40.16971177 ] } },
{ "type": "Feature", "properties": { "FID": 61, "Line_Name": "Lansdale Doylestown Line", "Station_Na": "Pennbrook", "Latitude": 40.230285846999998, "Longitude": -75.281769608999994 }, "geometry": { "type": "Point", "coordinates": [ -75.281769609, 40.230285847 ] } },
{ "type": "Feature", "properties": { "FID": 62, "Line_Name": "Manayunk Norristown Line", "Station_Na": "Allegheny", "Latitude": 40.003859036999998, "Longitude": -75.165425987999996 }, "geometry": { "type": "Point", "coordinates": [ -75.165425988, 40.003859037 ] } },
{ "type": "Feature", "properties": { "FID": 63, "Line_Name": "Manayunk Norristown Line", "Station_Na": "Conshohocken", "Latitude": 40.072114962000001, "Longitude": -75.308640014000005 }, "geometry": { "type": "Point", "coordinates": [ -75.308640014, 40.072114962 ] } },
{ "type": "Feature", "properties": { "FID": 64, "Line_Name": "Manayunk Norristown Line", "Station_Na": "East Falls", "Latitude": 40.011406086999997, "Longitude": -75.192040974999998 }, "geometry": { "type": "Point", "coordinates": [ -75.192040975, 40.011406087 ] } },
{ "type": "Feature", "properties": { "FID": 65, "Line_Name": "Manayunk Norristown Line", "Station_Na": "Elm Street", "Latitude": 40.120847313, "Longitude": -75.345086314 }, "geometry": { "type": "Point", "coordinates": [ -75.345086314, 40.120847313 ] } },
{ "type": "Feature", "properties": { "FID": 66, "Line_Name": "Manayunk Norristown Line", "Station_Na": "Ivy Ridge", "Latitude": 40.034091941, "Longitude": -75.235473133 }, "geometry": { "type": "Point", "coordinates": [ -75.235473133, 40.034091941 ] } },
{ "type": "Feature", "properties": { "FID": 67, "Line_Name": "Manayunk Norristown Line", "Station_Na": "Main Street", "Latitude": 40.116948987999997, "Longitude": -75.348791988000002 }, "geometry": { "type": "Point", "coordinates": [ -75.348791988, 40.116948988 ] } },
{ "type": "Feature", "properties": { "FID": 68, "Line_Name": "Manayunk Norristown Line", "Station_Na": "Manayunk", "Latitude": 40.026788189000001, "Longitude": -75.224968112 }, "geometry": { "type": "Point", "coordinates": [ -75.224968112, 40.026788189 ] } },
{ "type": "Feature", "properties": { "FID": 69, "Line_Name": "Manayunk Norristown Line", "Station_Na": "Miquon", "Latitude": 40.058529094999997, "Longitude": -75.266395888999995 }, "geometry": { "type": "Point", "coordinates": [ -75.266395889, 40.058529095 ] } },
{ "type": "Feature", "properties": { "FID": 70, "Line_Name": "Manayunk Norristown Line", "Station_Na": "Norristown Transportation Center", "Latitude": 40.112675294, "Longitude": -75.344043892000002 }, "geometry": { "type": "Point", "coordinates": [ -75.344043892, 40.112675294 ] } },
{ "type": "Feature", "properties": { "FID": 71, "Line_Name": "Manayunk Norristown Line", "Station_Na": "Spring Mill", "Latitude": 40.074216061000001, "Longitude": -75.286083004000005 }, "geometry": { "type": "Point", "coordinates": [ -75.286083004, 40.074216061 ] } },
{ "type": "Feature", "properties": { "FID": 72, "Line_Name": "Manayunk Norristown Line", "Station_Na": "Wissahickon", "Latitude": 40.016566853, "Longitude": -75.210207052000001 }, "geometry": { "type": "Point", "coordinates": [ -75.210207052, 40.016566853 ] } },
{ "type": "Feature", "properties": { "FID": 73, "Line_Name": "Media Wawa Line", "Station_Na": "49th Street", "Latitude": 39.943609332999998, "Longitude": -75.216436755000004 }, "geometry": { "type": "Point", "coordinates": [ -75.216436755, 39.943609333 ] } },
{ "type": "Feature", "properties": { "FID": 74, "Line_Name": "Media Wawa Line", "Station_Na": "Angora", "Latitude": 39.944834374000003, "Longitude": -75.238534118000004 }, "geometry": { "type": "Point", "coordinates": [ -75.238534118, 39.944834374 ] } },
{ "type": "Feature", "properties": { "FID": 75, "Line_Name": "Media Wawa Line", "Station_Na": "Clifton-Aldan", "Latitude": 39.926671138000003, "Longitude": -75.290326878000002 }, "geometry": { "type": "Point", "coordinates": [ -75.290326878, 39.926671138 ] } },
{ "type": "Feature", "properties": { "FID": 76, "Line_Name": "Media Wawa Line", "Station_Na": "Elwyn", "Latitude": 39.907816963999998, "Longitude": -75.411187216000002 }, "geometry": { "type": "Point", "coordinates": [ -75.411187216, 39.907816964 ] } },
{ "type": "Feature", "properties": { "FID": 77, "Line_Name": "Media Wawa Line", "Station_Na": "Fernwood-Yeadon", "Latitude": 39.939681393000001, "Longitude": -75.256050373999997 }, "geometry": { "type": "Point", "coordinates": [ -75.256050374, 39.939681393 ] } },
{ "type": "Feature", "properties": { "FID": 78, "Line_Name": "Media Wawa Line", "Station_Na": "Gladstone", "Latitude": 39.932734335, "Longitude": -75.282147666 }, "geometry": { "type": "Point", "coordinates": [ -75.282147666, 39.932734335 ] } },
{ "type": "Feature", "properties": { "FID": 79, "Line_Name": "Media Wawa Line", "Station_Na": "Lansdowne", "Latitude": 39.937276493, "Longitude": -75.271605061000002 }, "geometry": { "type": "Point", "coordinates": [ -75.271605061, 39.937276493 ] } },
{ "type": "Feature", "properties": { "FID": 80, "Line_Name": "Media Wawa Line", "Station_Na": "Media", "Latitude": 39.91423358, "Longitude": -75.394656 }, "geometry": { "type": "Point", "coordinates": [ -75.394656, 39.91423358 ] } },
{ "type": "Feature", "properties": { "FID": 81, "Line_Name": "Media Wawa Line", "Station_Na": "Morton", "Latitude": 39.908035065, "Longitude": -75.328361758 }, "geometry": { "type": "Point", "coordinates": [ -75.328361758, 39.908035065 ] } },
{ "type": "Feature", "properties": { "FID": 82, "Line_Name": "Media Wawa Line", "Station_Na": "Moylan-Rose Valley", "Latitude": 39.905839008000001, "Longitude": -75.388086536000003 }, "geometry": { "type": "Point", "coordinates": [ -75.388086536, 39.905839008 ] } },
{ "type": "Feature", "properties": { "FID": 83, "Line_Name": "Media Wawa Line", "Station_Na": "Primos", "Latitude": 39.921677486, "Longitude": -75.298368306 }, "geometry": { "type": "Point", "coordinates": [ -75.298368306, 39.921677486 ] } },
{ "type": "Feature", "properties": { "FID": 84, "Line_Name": "Media Wawa Line", "Station_Na": "Secane", "Latitude": 39.915761986, "Longitude": -75.309821346000007 }, "geometry": { "type": "Point", "coordinates": [ -75.309821346, 39.915761986 ] } },
{ "type": "Feature", "properties": { "FID": 85, "Line_Name": "Media Wawa Line", "Station_Na": "Swarthmore", "Latitude": 39.902294437000002, "Longitude": -75.351105575999995 }, "geometry": { "type": "Point", "coordinates": [ -75.351105576, 39.902294437 ] } },
{ "type": "Feature", "properties": { "FID": 86, "Line_Name": "Media Wawa Line", "Station_Na": "Wallingford", "Latitude": 39.903746828000003, "Longitude": -75.371611875 }, "geometry": { "type": "Point", "coordinates": [ -75.371611875, 39.903746828 ] } },
{ "type": "Feature", "properties": { "FID": 87, "Line_Name": "Media Wawa Line", "Station_Na": "Wawa", "Latitude": 39.901184291900002, "Longitude": -75.459746404399993 }, "geometry": { "type": "Point", "coordinates": [ -75.459746404409998, 39.901184291900002 ] } },
{ "type": "Feature", "properties": { "FID": 88, "Line_Name": "Paoli Thorndale Line", "Station_Na": "Ardmore", "Latitude": 40.00841607, "Longitude": -75.290258296000005 }, "geometry": { "type": "Point", "coordinates": [ -75.290258296, 40.00841607 ] } },
{ "type": "Feature", "properties": { "FID": 89, "Line_Name": "Paoli Thorndale Line", "Station_Na": "Berwyn", "Latitude": 40.048088620999998, "Longitude": -75.442462376999998 }, "geometry": { "type": "Point", "coordinates": [ -75.442462377, 40.048088621 ] } },
{ "type": "Feature", "properties": { "FID": 90, "Line_Name": "Paoli Thorndale Line", "Station_Na": "Bryn Mawr", "Latitude": 40.021915915999998, "Longitude": -75.315840879000007 }, "geometry": { "type": "Point", "coordinates": [ -75.315840879, 40.021915916 ] } },
{ "type": "Feature", "properties": { "FID": 91, "Line_Name": "Paoli Thorndale Line", "Station_Na": "Daylesford", "Latitude": 40.042933021000003, "Longitude": -75.460638274000004 }, "geometry": { "type": "Point", "coordinates": [ -75.460638274, 40.042933021 ] } },
{ "type": "Feature", "properties": { "FID": 92, "Line_Name": "Paoli Thorndale Line", "Station_Na": "Devon", "Latitude": 40.047370276000002, "Longitude": -75.42296749 }, "geometry": { "type": "Point", "coordinates": [ -75.42296749, 40.047370276 ] } },
{ "type": "Feature", "properties": { "FID": 93, "Line_Name": "Paoli Thorndale Line", "Station_Na": "Downingtown", "Latitude": 40.002075587, "Longitude": -75.710520988 }, "geometry": { "type": "Point", "coordinates": [ -75.710520988, 40.002075587 ] } },
{ "type": "Feature", "properties": { "FID": 94, "Line_Name": "Paoli Thorndale Line", "Station_Na": "Exton", "Latitude": 40.019435224, "Longitude": -75.621724676 }, "geometry": { "type": "Point", "coordinates": [ -75.621724676, 40.019435224 ] } },
{ "type": "Feature", "properties": { "FID": 95, "Line_Name": "Paoli Thorndale Line", "Station_Na": "Haverford", "Latitude": 40.014080456000002, "Longitude": -75.300128185000005 }, "geometry": { "type": "Point", "coordinates": [ -75.300128185, 40.014080456 ] } },
{ "type": "Feature", "properties": { "FID": 96, "Line_Name": "Paoli Thorndale Line", "Station_Na": "Malvern", "Latitude": 40.03645616, "Longitude": -75.515535185999994 }, "geometry": { "type": "Point", "coordinates": [ -75.515535186, 40.03645616 ] } },
{ "type": "Feature", "properties": { "FID": 97, "Line_Name": "Paoli Thorndale Line", "Station_Na": "Merion", "Latitude": 39.997501196000002, "Longitude": -75.251476937000007 }, "geometry": { "type": "Point", "coordinates": [ -75.251476937, 39.997501196 ] } },
{ "type": "Feature", "properties": { "FID": 98, "Line_Name": "Paoli Thorndale Line", "Station_Na": "Narberth", "Latitude": 40.004878147, "Longitude": -75.261483967000004 }, "geometry": { "type": "Point", "coordinates": [ -75.261483967, 40.004878147 ] } },
{ "type": "Feature", "properties": { "FID": 99, "Line_Name": "Paoli Thorndale Line", "Station_Na": "Overbrook", "Latitude": 39.98990226, "Longitude": -75.249839159000004 }, "geometry": { "type": "Point", "coordinates": [ -75.249839159, 39.98990226 ] } },
{ "type": "Feature", "properties": { "FID": 100, "Line_Name": "Paoli Thorndale Line", "Station_Na": "Paoli", "Latitude": 40.042959, "Longitude": -75.48373 }, "geometry": { "type": "Point", "coordinates": [ -75.48373, 40.042959 ] } },
{ "type": "Feature", "properties": { "FID": 101, "Line_Name": "Paoli Thorndale Line", "Station_Na": "Radnor", "Latitude": 40.044738576, "Longitude": -75.359436185999996 }, "geometry": { "type": "Point", "coordinates": [ -75.359436186, 40.044738576 ] } },
{ "type": "Feature", "properties": { "FID": 102, "Line_Name": "Paoli Thorndale Line", "Station_Na": "Rosemont", "Latitude": 40.028238891999997, "Longitude": -75.327258471999997 }, "geometry": { "type": "Point", "coordinates": [ -75.327258472, 40.028238892 ] } },
{ "type": "Feature", "properties": { "FID": 103, "Line_Name": "Paoli Thorndale Line", "Station_Na": "St. Davids", "Latitude": 40.044099451999998, "Longitude": -75.373431952000004 }, "geometry": { "type": "Point", "coordinates": [ -75.373431952, 40.044099452 ] } },
{ "type": "Feature", "properties": { "FID": 104, "Line_Name": "Paoli Thorndale Line", "Station_Na": "Strafford", "Latitude": 40.049694657000003, "Longitude": -75.403731692999997 }, "geometry": { "type": "Point", "coordinates": [ -75.403731693, 40.049694657 ] } },
{ "type": "Feature", "properties": { "FID": 105, "Line_Name": "Paoli Thorndale Line", "Station_Na": "Thorndale", "Latitude": 39.992682170999998, "Longitude": -75.762704365999994 }, "geometry": { "type": "Point", "coordinates": [ -75.762704366, 39.992682171 ] } },
{ "type": "Feature", "properties": { "FID": 106, "Line_Name": "Paoli Thorndale Line", "Station_Na": "Villanova", "Latitude": 40.038651692999998, "Longitude": -75.342323542000003 }, "geometry": { "type": "Point", "coordinates": [ -75.342323542, 40.038651693 ] } },
{ "type": "Feature", "properties": { "FID": 107, "Line_Name": "Paoli Thorndale Line", "Station_Na": "Wayne", "Latitude": 40.045852546, "Longitude": -75.387251711000005 }, "geometry": { "type": "Point", "coordinates": [ -75.387251711, 40.045852546 ] } },
{ "type": "Feature", "properties": { "FID": 108, "Line_Name": "Paoli Thorndale Line", "Station_Na": "Whitford", "Latitude": 40.014710963, "Longitude": -75.638456657999996 }, "geometry": { "type": "Point", "coordinates": [ -75.638456658, 40.014710963 ] } },
{ "type": "Feature", "properties": { "FID": 109, "Line_Name": "Paoli Thorndale Line", "Station_Na": "Wynnewood", "Latitude": 40.002836672000001, "Longitude": -75.27309096 }, "geometry": { "type": "Point", "coordinates": [ -75.27309096, 40.002836672 ] } },
{ "type": "Feature", "properties": { "FID": 110, "Line_Name": "Trenton Line", "Station_Na": "Bridesburg", "Latitude": 40.01068534, "Longitude": -75.069943084000002 }, "geometry": { "type": "Point", "coordinates": [ -75.069943084, 40.01068534 ] } },
{ "type": "Feature", "properties": { "FID": 111, "Line_Name": "Trenton Line", "Station_Na": "Bristol", "Latitude": 40.10493855, "Longitude": -74.854819763999998 }, "geometry": { "type": "Point", "coordinates": [ -74.854819764, 40.10493855 ] } },
{ "type": "Feature", "properties": { "FID": 112, "Line_Name": "Trenton Line", "Station_Na": "Cornwells Heights", "Latitude": 40.071845338000003, "Longitude": -74.952156161000005 }, "geometry": { "type": "Point", "coordinates": [ -74.952156161, 40.071845338 ] } },
{ "type": "Feature", "properties": { "FID": 113, "Line_Name": "Trenton Line", "Station_Na": "Croydon", "Latitude": 40.093554229, "Longitude": -74.906808033000004 }, "geometry": { "type": "Point", "coordinates": [ -74.906808033, 40.093554229 ] } },
{ "type": "Feature", "properties": { "FID": 114, "Line_Name": "Trenton Line", "Station_Na": "Eddington", "Latitude": 40.082957925000002, "Longitude": -74.933730952999994 }, "geometry": { "type": "Point", "coordinates": [ -74.933730953, 40.082957925 ] } },
{ "type": "Feature", "properties": { "FID": 115, "Line_Name": "Trenton Line", "Station_Na": "Holmesburg Junction", "Latitude": 40.032745359000003, "Longitude": -75.023679224000006 }, "geometry": { "type": "Point", "coordinates": [ -75.023679224, 40.032745359 ] } },
{ "type": "Feature", "properties": { "FID": 116, "Line_Name": "Trenton Line", "Station_Na": "Levittown", "Latitude": 40.140138124000003, "Longitude": -74.81714811000001 }, "geometry": { "type": "Point", "coordinates": [ -74.81714811, 40.140138124 ] } },
{ "type": "Feature", "properties": { "FID": 117, "Line_Name": "Trenton Line", "Station_Na": "North Philadelphia", "Latitude": 39.997272902, "Longitude": -75.155269965000002 }, "geometry": { "type": "Point", "coordinates": [ -75.155269965, 39.997272902 ] } },
{ "type": "Feature", "properties": { "FID": 118, "Line_Name": "Trenton Line", "Station_Na": "Tacony", "Latitude": 40.023237985000002, "Longitude": -75.039025991000003 }, "geometry": { "type": "Point", "coordinates": [ -75.039025991, 40.023237985 ] } },
{ "type": "Feature", "properties": { "FID": 119, "Line_Name": "Trenton Line", "Station_Na": "Torresdale", "Latitude": 40.054404132000002, "Longitude": -74.984499147999998 }, "geometry": { "type": "Point", "coordinates": [ -74.984499148, 40.054404132 ] } },
{ "type": "Feature", "properties": { "FID": 120, "Line_Name": "Trenton Line", "Station_Na": "Trenton Transit Center", "Latitude": 40.21842169, "Longitude": -74.753989833999995 }, "geometry": { "type": "Point", "coordinates": [ -74.753989834, 40.21842169 ] } },
{ "type": "Feature", "properties": { "FID": 121, "Line_Name": "Warminster Line", "Station_Na": "Ardsley", "Latitude": 40.114130054, "Longitude": -75.153164106999995 }, "geometry": { "type": "Point", "coordinates": [ -75.153164107, 40.114130054 ] } },
{ "type": "Feature", "properties": { "FID": 122, "Line_Name": "Warminster Line", "Station_Na": "Crestmont", "Latitude": 40.133248863, "Longitude": -75.118644665999994 }, "geometry": { "type": "Point", "coordinates": [ -75.118644666, 40.133248863 ] } },
{ "type": "Feature", "properties": { "FID": 123, "Line_Name": "Warminster Line", "Station_Na": "Hatboro", "Latitude": 40.175587874999998, "Longitude": -75.102832575999997 }, "geometry": { "type": "Point", "coordinates": [ -75.102832576, 40.175587875 ] } },
{ "type": "Feature", "properties": { "FID": 124, "Line_Name": "Warminster Line", "Station_Na": "Roslyn", "Latitude": 40.120909292999997, "Longitude": -75.13404812 }, "geometry": { "type": "Point", "coordinates": [ -75.13404812, 40.120909293 ] } },
{ "type": "Feature", "properties": { "FID": 125, "Line_Name": "Warminster Line", "Station_Na": "Warminster", "Latitude": 40.195142506000003, "Longitude": -75.088976024000004 }, "geometry": { "type": "Point", "coordinates": [ -75.088976024, 40.195142506 ] } },
{ "type": "Feature", "properties": { "FID": 126, "Line_Name": "Warminster Line", "Station_Na": "Willow Grove", "Latitude": 40.143685134000002, "Longitude": -75.114347276000004 }, "geometry": { "type": "Point", "coordinates": [ -75.114347276, 40.143685134 ] } },
{ "type": "Feature", "properties": { "FID": 127, "Line_Name": "West Trenton Line", "Station_Na": "Bethayres", "Latitude": 40.116477103000001, "Longitude": -75.068690098000005 }, "geometry": { "type": "Point", "coordinates": [ -75.068690098, 40.116477103 ] } },
{ "type": "Feature", "properties": { "FID": 128, "Line_Name": "West Trenton Line", "Station_Na": "Forest Hills", "Latitude": 40.127821327, "Longitude": -75.020920366 }, "geometry": { "type": "Point", "coordinates": [ -75.020920366, 40.127821327 ] } },
{ "type": "Feature", "properties": { "FID": 129, "Line_Name": "West Trenton Line", "Station_Na": "Langhorne", "Latitude": 40.160661005000001, "Longitude": -74.913019004000006 }, "geometry": { "type": "Point", "coordinates": [ -74.913019004, 40.160661005 ] } },
{ "type": "Feature", "properties": { "FID": 130, "Line_Name": "West Trenton Line", "Station_Na": "Meadowbrook", "Latitude": 40.111320616999997, "Longitude": -75.092473004 }, "geometry": { "type": "Point", "coordinates": [ -75.092473004, 40.111320617 ] } },
{ "type": "Feature", "properties": { "FID": 131, "Line_Name": "West Trenton Line", "Station_Na": "Neshaminy Falls", "Latitude": 40.146827731999998, "Longitude": -74.962169296 }, "geometry": { "type": "Point", "coordinates": [ -74.962169296, 40.146827732 ] } },
{ "type": "Feature", "properties": { "FID": 132, "Line_Name": "West Trenton Line", "Station_Na": "Noble", "Latitude": 40.104345463000001, "Longitude": -75.124613187999998 }, "geometry": { "type": "Point", "coordinates": [ -75.124613188, 40.104345463 ] } },
{ "type": "Feature", "properties": { "FID": 133, "Line_Name": "West Trenton Line", "Station_Na": "Philmont", "Latitude": 40.121869783000001, "Longitude": -75.043754031000006 }, "geometry": { "type": "Point", "coordinates": [ -75.043754031, 40.121869783 ] } },
{ "type": "Feature", "properties": { "FID": 134, "Line_Name": "West Trenton Line", "Station_Na": "Rydal", "Latitude": 40.107378187999998, "Longitude": -75.110644128999994 }, "geometry": { "type": "Point", "coordinates": [ -75.110644129, 40.107378188 ] } },
{ "type": "Feature", "properties": { "FID": 135, "Line_Name": "West Trenton Line", "Station_Na": "Somerton", "Latitude": 40.130626442000001, "Longitude": -75.0120294 }, "geometry": { "type": "Point", "coordinates": [ -75.0120294, 40.130626442 ] } },
{ "type": "Feature", "properties": { "FID": 136, "Line_Name": "West Trenton Line", "Station_Na": "Trevose", "Latitude": 40.140142290999997, "Longitude": -74.982746671000001 }, "geometry": { "type": "Point", "coordinates": [ -74.982746671, 40.140142291 ] } },
{ "type": "Feature", "properties": { "FID": 137, "Line_Name": "West Trenton Line", "Station_Na": "West Trenton", "Latitude": 40.257296742000001, "Longitude": -74.815518291000004 }, "geometry": { "type": "Point", "coordinates": [ -74.815518291, 40.257296742 ] } },
{ "type": "Feature", "properties": { "FID": 138, "Line_Name": "West Trenton Line", "Station_Na": "Woodbourne", "Latitude": 40.190848574, "Longitude": -74.890910827 }, "geometry": { "type": "Point", "coordinates": [ -74.890910827, 40.190848574 ] } },
{ "type": "Feature", "properties": { "FID": 139, "Line_Name": "West Trenton Line", "Station_Na": "Yardley", "Latitude": 40.23509412, "Longitude": -74.83094707 }, "geometry": { "type": "Point", "coordinates": [ -74.83094707, 40.23509412 ] } },
{ "type": "Feature", "properties": { "FID": 140, "Line_Name": "Wilmington Newark Line", "Station_Na": "Chester Transportation Center", "Latitude": 39.849552515, "Longitude": -75.359930786999996 }, "geometry": { "type": "Point", "coordinates": [ -75.359930787, 39.849552515 ] } },
{ "type": "Feature", "properties": { "FID": 141, "Line_Name": "Wilmington Newark Line", "Station_Na": "Churchmans Crossing", "Latitude": 39.694532238999997, "Longitude": -75.673147043 }, "geometry": { "type": "Point", "coordinates": [ -75.673147043, 39.694532239 ] } },
{ "type": "Feature", "properties": { "FID": 142, "Line_Name": "Wilmington Newark Line", "Station_Na": "Claymont", "Latitude": 39.797852172, "Longitude": -75.451993965 }, "geometry": { "type": "Point", "coordinates": [ -75.451993965, 39.797852172 ] } },
{ "type": "Feature", "properties": { "FID": 143, "Line_Name": "Wilmington Newark Line", "Station_Na": "Crum Lynne", "Latitude": 39.871851704000001, "Longitude": -75.330966361999998 }, "geometry": { "type": "Point", "coordinates": [ -75.330966362, 39.871851704 ] } },
{ "type": "Feature", "properties": { "FID": 144, "Line_Name": "Wilmington Newark Line", "Station_Na": "Curtis Park", "Latitude": 39.908011672000001, "Longitude": -75.265025285999997 }, "geometry": { "type": "Point", "coordinates": [ -75.265025286, 39.908011672 ] } },
{ "type": "Feature", "properties": { "FID": 145, "Line_Name": "Wilmington Newark Line", "Station_Na": "Darby", "Latitude": 39.912949028, "Longitude": -75.25455341 }, "geometry": { "type": "Point", "coordinates": [ -75.25455341, 39.912949028 ] } },
{ "type": "Feature", "properties": { "FID": 146, "Line_Name": "Wilmington Newark Line", "Station_Na": "Eddystone", "Latitude": 39.857423661, "Longitude": -75.341661355 }, "geometry": { "type": "Point", "coordinates": [ -75.341661355, 39.857423661 ] } },
{ "type": "Feature", "properties": { "FID": 147, "Line_Name": "Wilmington Newark Line", "Station_Na": "Folcroft", "Latitude": 39.900556051000002, "Longitude": -75.279755984999994 }, "geometry": { "type": "Point", "coordinates": [ -75.279755985, 39.900556051 ] } },
{ "type": "Feature", "properties": { "FID": 148, "Line_Name": "Wilmington Newark Line", "Station_Na": "Glenolden", "Latitude": 39.89627447, "Longitude": -75.290017164000005 }, "geometry": { "type": "Point", "coordinates": [ -75.290017164, 39.89627447 ] } },
{ "type": "Feature", "properties": { "FID": 149, "Line_Name": "Wilmington Newark Line", "Station_Na": "Highland Avenue", "Latitude": 39.833686115, "Longitude": -75.39303072 }, "geometry": { "type": "Point", "coordinates": [ -75.39303072, 39.833686115 ] } },
{ "type": "Feature", "properties": { "FID": 150, "Line_Name": "Wilmington Newark Line", "Station_Na": "Marcus Hook", "Latitude": 39.821655603000004, "Longitude": -75.419539239000002 }, "geometry": { "type": "Point", "coordinates": [ -75.419539239, 39.821655603 ] } },
{ "type": "Feature", "properties": { "FID": 151, "Line_Name": "Wilmington Newark Line", "Station_Na": "Newark", "Latitude": 39.67018255, "Longitude": -75.7527934 }, "geometry": { "type": "Point", "coordinates": [ -75.7527934, 39.67018255 ] } },
{ "type": "Feature", "properties": { "FID": 152, "Line_Name": "Wilmington Newark Line", "Station_Na": "Norwood", "Latitude": 39.891220269000002, "Longitude": -75.302156045000004 }, "geometry": { "type": "Point", "coordinates": [ -75.302156045, 39.891220269 ] } },
{ "type": "Feature", "properties": { "FID": 153, "Line_Name": "Wilmington Newark Line", "Station_Na": "Prospect Park", "Latitude": 39.888127175000001, "Longitude": -75.309415496 }, "geometry": { "type": "Point", "coordinates": [ -75.309415496, 39.888127175 ] } },
{ "type": "Feature", "properties": { "FID": 154, "Line_Name": "Wilmington Newark Line", "Station_Na": "Ridley Park", "Latitude": 39.88052708, "Longitude": -75.322089237 }, "geometry": { "type": "Point", "coordinates": [ -75.322089237, 39.88052708 ] } },
{ "type": "Feature", "properties": { "FID": 155, "Line_Name": "Wilmington Newark Line", "Station_Na": "Sharon Hill", "Latitude": 39.904257266000002, "Longitude": -75.270915682999998 }, "geometry": { "type": "Point", "coordinates": [ -75.270915683, 39.904257266 ] } },
{ "type": "Feature", "properties": { "FID": 156, "Line_Name": "Wilmington Newark Line", "Station_Na": "Wilmington", "Latitude": 39.736952045000002, "Longitude": -75.550934017000003 }, "geometry": { "type": "Point", "coordinates": [ -75.550934017, 39.736952045 ] } }
]
}
